[
  {
    "id": 1,
    "name": "Dhaka Medical College Hospital",
    "phoneNumber": "+880-2-9668690",
    "website": "https://dmch.gov.bd",
    "types": ["PUBLIC", "GENERAL"],
    "icus": 50,
    "costRange": "LOW",
    "latitude": 23.7937,
    "longitude": 90.4066,
    "locationResponse": {
      "id": 1,
      "locationType": "HOSPITAL",
      "address": "Dhaka Medical College Road",
      "thana": "Ramna",
      "po": "Dhaka Medical College",
      "city": "Dhaka",
      "postalCode": 1000,
      "zoneId": 1
    }
  },
  {
    "id": 2,
    "name": "Square Hospital",
    "phoneNumber": "+880-2-8144400",
    "website": "https://squarehospital.com",
    "types": ["PRIVATE", "SPECIALIZED"],
    "icus": 30,
    "costRange": "HIGH",
    "latitude": 23.7461,
    "longitude": 90.3744,
    "locationResponse": {
      "id": 2,
      "locationType": "HOSPITAL",
      "address": "18/F, Bir Uttam Qazi Nuruzzaman Sarak",
      "thana": "Dhanmondi",
      "po": "Dhanmondi",
      "city": "Dhaka",
      "postalCode": 1205,
      "zoneId": 2
    }
  },
  {
    "id": 3,
    "name": "Apollo Hospitals Dhaka",
    "phoneNumber": "+880-2-8401661",
    "website": "https://apollodhaka.com",
    "types": ["PRIVATE", "SPECIALIZED"],
    "icus": 40,
    "costRange": "HIGH",
    "latitude": 23.7937,
    "longitude": 90.4066,
    "locationResponse": {
      "id": 3,
      "locationType": "HOSPITAL",
      "address": "Plot # 81, Block # E, Bashundhara R/A",
      "thana": "Vatara",
      "po": "Bashundhara",
      "city": "Dhaka",
      "postalCode": 1229,
      "zoneId": 3
    }
  }
] 